City_ID,City,Country,Lat,Lng,Max Temp,Humidity,Cloudiness,Wind Speed,Current Weather,Rainfall over last hr (inches),Snowfall over last hr (inches)
0,Hermanus,ZA,-34.42,19.23,57.0,91,83,11.16,light rain,0.1,0.0
1,Salalah,OM,17.02,54.09,84.2,83,20,1.12,few clouds,0.0,0.0
2,Koungheul,SN,13.98,-14.8,98.13,34,82,6.6,broken clouds,0.0,0.0
3,Taltal,CL,-25.4,-70.48,66.94,55,22,1.1,few clouds,0.0,0.0
4,Carutapera,BR,-1.2,-46.02,82.06,80,0,7.25,clear sky,0.0,0.0
5,Kruisfontein,ZA,-34.0,24.73,56.77,88,98,0.58,overcast clouds,0.0,0.0
6,Narsaq,GL,60.92,-46.05,53.6,37,75,4.7,broken clouds,0.0,0.0
7,Lukaya,UG,-0.15,31.87,73.4,78,20,4.7,few clouds,0.0,0.0
8,Jamestown,US,42.1,-79.24,78.01,69,90,8.05,overcast clouds,0.0,0.0
9,Coquimbo,CL,-29.95,-71.34,55.4,93,75,10.29,broken clouds,0.0,0.0
10,Dikson,RU,73.51,80.55,35.98,84,99,21.18,overcast clouds,0.0,0.0
11,Busselton,AU,-33.65,115.33,42.01,70,0,6.35,clear sky,0.0,0.0
12,Hithadhoo,MV,-0.6,73.08,82.96,73,100,7.25,light rain,0.3,0.0
13,Punta Arenas,CL,-53.15,-70.92,39.2,82,70,2.24,broken clouds,0.0,0.0
14,George Town,MY,5.41,100.34,82.4,83,20,4.7,few clouds,0.0,0.0
15,Saint-Joseph,RE,-21.37,55.62,68.0,77,54,2.24,broken clouds,0.0,0.0
16,Koslan,RU,63.46,48.9,42.78,74,99,12.3,overcast clouds,0.0,0.0
17,Brigantine,US,39.41,-74.36,82.4,58,20,12.75,few clouds,0.0,0.0
18,Torzhok,RU,57.04,34.96,59.02,77,92,7.65,overcast clouds,0.0,0.0
19,Walvis Bay,NA,-22.96,14.51,69.8,34,1,10.29,clear sky,0.0,0.0
20,Georgetown,MY,5.41,100.34,82.4,83,20,4.7,few clouds,0.0,0.0
21,Berlevag,NO,70.86,29.09,43.92,80,4,3.27,clear sky,0.0,0.0
22,Melfi,IT,41.0,15.65,69.8,64,40,17.22,scattered clouds,0.0,0.0
23,Quelimane,MZ,-17.88,36.89,68.0,82,20,6.93,few clouds,0.0,0.0
24,Tasiilaq,GL,65.61,-37.64,44.6,70,100,31.09,light rain,0.1,0.0
25,Maragogi,BR,-9.01,-35.22,76.73,80,0,13.78,light rain,0.1,0.0
26,Fonte Boa,BR,-2.5,-66.27,81.39,92,54,3.15,light rain,1.0,0.0
27,Bom Jesus,BR,-9.07,-44.36,85.1,39,0,4.94,clear sky,0.0,0.0
28,Porto Novo,BJ,6.5,2.6,78.08,87,100,3.8,moderate rain,2.0,0.0
29,Lomovka,RU,53.92,58.37,59.0,51,16,6.71,few clouds,0.0,0.0
30,Bredasdorp,ZA,-34.53,20.04,59.0,87,18,6.13,few clouds,0.0,0.0
31,Kavaratti,IN,10.57,72.64,83.95,75,98,15.99,moderate rain,2.1,0.0
32,Blagoyevo,RU,63.37,47.92,43.03,72,82,11.61,broken clouds,0.0,0.0
33,Ushuaia,AR,-54.8,-68.3,37.4,87,75,3.36,broken clouds,0.0,0.0
34,Luba,GQ,3.46,8.55,78.8,94,40,6.93,scattered clouds,0.0,0.0
35,Arraial Do Cabo,BR,-22.97,-42.03,78.8,74,0,9.17,clear sky,0.0,0.0
36,Saint George,US,37.1,-113.58,98.01,8,1,6.93,clear sky,0.0,0.0
37,Nueva Loja,EC,0.08,-76.88,73.4,100,75,2.24,light rain,0.0,0.0
38,Kralendijk,BQ,12.15,-68.27,87.8,66,75,18.34,broken clouds,0.0,0.0
39,Savinskiy,RU,62.93,40.14,43.86,80,0,5.73,clear sky,0.0,0.0
40,Mairana,BO,-18.12,-63.93,65.3,78,25,7.65,scattered clouds,0.0,0.0
41,Dzilam Gonzalez,MX,21.28,-88.93,89.01,72,8,5.75,moderate rain,2.0,0.0
42,Souillac,MU,-20.52,57.52,71.6,73,40,16.11,scattered clouds,0.0,0.0
43,Cape Town,ZA,-33.93,18.42,60.01,93,20,6.93,light rain,0.5,0.0
44,Novokuznetsk,RU,53.76,87.11,46.98,74,100,4.23,overcast clouds,0.0,0.0
45,Uberlandia,BR,-18.92,-48.28,76.01,54,2,7.49,clear sky,0.0,0.0
46,Flores,GT,16.92,-89.9,90.12,62,66,3.29,light rain,0.9,0.0
47,Hamilton,US,39.18,-84.53,91.99,43,90,10.29,overcast clouds,0.0,0.0
48,Saint-Pierre,RE,-21.34,55.48,68.0,77,43,9.17,scattered clouds,0.0,0.0
49,Nawa,IN,27.02,75.0,93.96,37,0,16.73,clear sky,0.0,0.0
50,Corinto,GR,37.94,22.96,72.0,46,0,1.01,clear sky,0.0,0.0
51,Tessalit,ML,20.2,1.01,98.37,9,0,5.14,clear sky,0.0,0.0
52,Raahe,FI,64.68,24.48,64.4,52,2,6.93,clear sky,0.0,0.0
53,Mumbwa,ZM,-14.98,27.06,52.79,71,0,5.59,clear sky,0.0,0.0
54,Suamico,US,44.63,-88.04,69.8,88,90,10.29,light rain,0.2,0.0
55,Luderitz,NA,-26.65,15.16,55.4,87,0,4.7,clear sky,0.0,0.0
56,Boueni,YT,-12.9,45.08,77.0,78,90,21.92,overcast clouds,0.0,0.0
57,Stykkisholmur,IS,65.08,-22.73,54.5,75,86,3.06,overcast clouds,0.0,0.0
58,Qaanaaq,GL,77.48,-69.36,40.23,70,100,8.3,overcast clouds,0.0,0.0
59,Luebo,CD,-5.35,21.42,72.59,46,0,1.63,clear sky,0.0,0.0
60,Calama,CL,-22.47,-68.93,71.6,10,0,23.04,clear sky,0.0,0.0
61,Muros,ES,42.78,-9.06,66.0,78,100,8.99,overcast clouds,0.0,0.0
62,Port Blair,IN,11.67,92.75,82.51,83,83,10.98,broken clouds,0.0,0.0
63,Port Elizabeth,ZA,-33.92,25.57,59.0,93,65,5.82,broken clouds,0.0,0.0
64,Abu Samrah,SY,35.3,37.18,70.27,65,0,13.94,clear sky,0.0,0.0
65,Ribeira Grande,PT,38.52,-28.7,68.0,88,40,14.99,scattered clouds,0.0,0.0
66,Urucui,BR,-7.23,-44.56,87.04,49,25,5.55,scattered clouds,0.0,0.0
67,Rocha,UY,-34.48,-54.33,56.93,79,0,6.55,clear sky,0.0,0.0
68,Tucuman,AR,-26.82,-65.22,75.2,44,1,4.7,clear sky,0.0,0.0
69,Ponta Do Sol,PT,32.67,-17.1,71.6,64,40,13.87,scattered clouds,0.0,0.0
70,Karasjok,NO,69.47,25.51,53.6,62,0,4.7,clear sky,0.0,0.0
71,Cap Malheureux,MU,-19.98,57.61,72.0,77,97,8.01,overcast clouds,0.0,0.0
72,Bucarasica,CO,8.04,-72.87,87.8,48,40,25.28,scattered clouds,0.0,0.0
73,Albion,US,42.24,-84.75,88.0,45,75,3.36,broken clouds,0.0,0.0
74,Namibe,AO,-15.2,12.15,71.71,55,0,7.56,clear sky,0.0,0.0
75,Dori,BF,14.04,-0.03,99.39,23,100,9.62,overcast clouds,0.0,0.0
76,Veraval,IN,20.9,70.37,85.1,78,96,14.79,light rain,0.4,0.0
77,Mitu,CO,1.2,-70.17,85.39,65,76,1.52,light rain,0.6,0.0
78,Mahebourg,MU,-20.41,57.7,71.6,73,40,16.11,scattered clouds,0.0,0.0
79,Garowe,SO,8.41,48.48,86.36,39,82,18.32,broken clouds,0.0,0.0
80,Maceio,BR,-9.67,-35.74,80.6,69,40,16.11,scattered clouds,0.0,0.0
81,Atar,MR,20.52,-13.05,104.18,11,54,9.98,broken clouds,0.0,0.0
82,Biskupiec,PL,53.86,20.96,66.72,90,100,5.14,overcast clouds,0.0,0.0
83,Kilindoni,TZ,-7.91,39.67,79.34,74,52,18.75,broken clouds,0.0,0.0
84,Grindavik,IS,63.84,-22.43,53.6,81,75,24.16,broken clouds,0.0,0.0
85,Thompson,CA,55.74,-97.86,48.2,93,90,9.17,light intensity drizzle,0.0,0.0
86,Fomboni,KM,-12.28,43.74,75.18,88,100,28.14,moderate rain,1.1,0.0
87,Mitsamiouli,KM,-11.38,43.28,76.64,82,100,19.26,light rain,0.4,0.0
88,Jacqueville,CI,5.21,-4.41,80.6,83,20,11.41,few clouds,0.0,0.0
89,Rypefjord,NO,70.63,23.67,44.6,87,0,8.05,clear sky,0.0,0.0
90,San Andres,CO,12.58,-81.7,86.0,79,40,17.22,scattered clouds,0.0,0.0
91,Lasa,IT,46.62,10.7,57.2,62,40,10.29,scattered clouds,0.0,0.0
92,Mar Del Plata,AR,-38.0,-57.56,55.99,71,100,3.36,overcast clouds,0.0,0.0
93,Acarau,BR,-2.89,-40.12,81.59,78,4,13.04,light rain,0.2,0.0
94,Dabakala,CI,8.37,-4.43,76.93,79,46,2.59,scattered clouds,0.0,0.0
95,Dhankuta,NP,26.98,87.33,69.35,93,6,3.06,moderate rain,1.5,0.0
96,Iskateley,RU,67.68,53.15,41.45,90,100,24.0,light rain,0.5,0.0
97,Pilar,BR,-9.6,-35.96,80.6,69,40,16.11,scattered clouds,0.0,0.0
98,Cidreira,BR,-30.18,-50.21,69.71,89,60,1.74,light rain,0.8,0.0
99,Igarka,RU,67.47,86.58,44.15,82,21,12.88,few clouds,0.0,0.0
100,Canutama,BR,-6.53,-64.38,91.4,44,48,4.14,scattered clouds,0.0,0.0
101,Clyde River,CA,70.47,-68.59,39.2,93,20,12.75,few clouds,0.0,0.0
102,Nouakchott,MR,18.09,-15.98,77.0,88,0,10.29,clear sky,0.0,0.0
103,Surt,LY,31.21,16.59,73.13,77,0,15.23,clear sky,0.0,0.0
104,Port Alfred,ZA,-33.59,26.89,64.99,50,18,5.99,few clouds,0.0,0.0
105,Saint Anthony,US,45.02,-93.22,72.0,53,40,6.93,light rain,0.2,0.0
106,Ibicui,BR,-14.84,-39.99,71.01,79,9,5.64,clear sky,0.0,0.0
107,Kargasok,RU,59.06,80.86,42.55,65,73,10.18,broken clouds,0.0,0.0
108,Cayenne,GF,4.93,-52.33,84.2,70,51,5.82,light rain,0.6,0.0
109,East London,ZA,-33.02,27.91,68.38,31,0,8.59,clear sky,0.0,0.0
110,Zile,TR,40.3,35.89,66.2,72,75,6.93,broken clouds,0.0,0.0
111,Campoverde,PE,-8.48,-74.81,87.8,62,75,4.7,broken clouds,0.0,0.0
112,Sayyan,YE,15.17,44.32,67.6,52,0,2.08,clear sky,0.0,0.0
113,Filadelfia,US,39.95,-75.16,86.0,61,75,6.93,thunderstorm,0.0,0.0
114,Miraflores,MX,19.22,-98.81,78.01,36,90,6.93,overcast clouds,0.0,0.0
115,Bridlington,GB,54.08,-0.19,66.2,68,0,6.93,clear sky,0.0,0.0
116,Mansa,IN,29.98,75.38,98.33,20,62,1.92,broken clouds,0.0,0.0
117,Sinnamary,GF,5.38,-52.95,81.0,83,69,9.28,light rain,0.2,0.0
118,Oranjemund,NA,-28.55,16.43,58.62,86,38,2.13,scattered clouds,0.0,0.0
119,Lebu,CL,-37.62,-73.65,53.73,85,51,17.11,light rain,0.9,0.0
120,Chapais,CA,49.78,-74.85,84.2,45,1,3.36,clear sky,0.0,0.0
121,Bull Savanna,JM,17.89,-77.59,84.94,65,1,18.81,clear sky,0.0,0.0
122,Elat,IL,29.56,34.95,89.6,31,0,16.11,clear sky,0.0,0.0
123,Puerto Leguizamo,CO,-0.19,-74.78,77.47,87,87,2.17,overcast clouds,0.0,0.0
124,Bonavista,CA,48.65,-53.11,43.93,71,66,9.84,broken clouds,0.0,0.0
125,Yanam,IN,16.73,82.22,81.61,80,97,7.11,overcast clouds,0.0,0.0
126,Cozumel,MX,20.51,-86.95,89.01,70,40,13.87,scattered clouds,0.0,0.0
127,Coihaique,CL,-45.58,-72.07,41.0,86,75,5.82,light rain,0.0,0.0
128,Bambous Virieux,MU,-20.34,57.76,72.0,73,40,16.11,scattered clouds,0.0,0.0
129,Roald,NO,62.58,6.13,64.99,77,100,4.7,overcast clouds,0.0,0.0
130,San Cristobal,VE,7.77,-72.22,87.8,48,40,25.28,scattered clouds,0.0,0.0
131,Saint-Philippe,RE,-21.36,55.77,68.0,77,72,9.17,light rain,0.1,0.0
132,Vestmanna,FO,62.16,-7.17,51.8,100,5,9.17,clear sky,0.0,0.0
133,Awjilah,LY,29.11,21.29,93.72,11,0,5.23,clear sky,0.0,0.0
134,Funtua,NG,11.52,7.31,76.77,63,43,12.24,scattered clouds,0.0,0.0
135,Mandera,KE,3.94,41.87,84.2,49,39,18.7,scattered clouds,0.0,0.0
136,Ileza,RU,61.05,43.9,42.98,82,30,4.56,scattered clouds,0.0,0.0
137,Darnah,LY,32.77,22.64,80.64,38,0,8.61,clear sky,0.0,0.0
138,Kutum,SD,14.2,24.67,77.72,17,0,9.8,clear sky,0.0,0.0
139,Saldanha,ZA,-33.01,17.94,57.2,87,50,4.7,light rain,0.2,0.0
140,Colorado,BR,-22.84,-51.97,75.56,61,0,4.68,clear sky,0.0,0.0
141,Pangody,RU,65.85,74.49,46.76,68,70,7.47,broken clouds,0.0,0.0
142,Easton,US,40.69,-75.22,84.99,51,75,3.36,broken clouds,0.0,0.0
143,Amapa,BR,1.0,-52.0,79.39,93,25,3.91,light rain,0.8,0.0
144,West Bay,KY,19.37,-81.42,91.4,63,20,8.05,few clouds,0.0,0.0
145,Kohlu,PK,29.9,69.25,84.6,32,0,10.71,clear sky,0.0,0.0
146,Puerto Madryn,AR,-42.77,-65.04,56.73,49,3,34.36,clear sky,0.0,0.0
147,Talnakh,RU,69.49,88.4,48.2,81,75,11.18,broken clouds,0.0,0.0
148,Andenes,NO,69.31,16.12,51.8,81,0,4.7,clear sky,0.0,0.0
149,Ancud,CL,-41.87,-73.82,50.0,87,75,1.12,broken clouds,0.0,0.0
150,Tshane,BW,-24.02,21.87,53.64,47,17,7.23,few clouds,0.0,0.0
151,Venado Tuerto,AR,-33.75,-61.97,62.01,60,100,3.0,overcast clouds,0.0,0.0
152,Verona,IT,45.42,11.03,73.4,53,0,3.36,clear sky,0.0,0.0
153,Chuy,UY,-33.7,-53.46,57.97,84,36,8.12,scattered clouds,0.0,0.0
154,Torbay,CA,47.67,-52.73,45.0,100,90,11.41,overcast clouds,0.0,0.0
155,Iqaluit,CA,63.75,-68.51,39.2,80,75,5.82,broken clouds,0.0,0.0
156,De Aar,ZA,-30.65,24.01,48.31,48,6,5.97,clear sky,0.0,0.0
157,Victoria,HK,22.29,114.16,84.0,74,50,8.99,scattered clouds,0.0,0.0
158,Praia Da Vitoria,PT,38.73,-27.07,77.0,61,20,7.99,few clouds,0.0,0.0
159,Sao Joaquim,BR,-28.29,-49.93,61.03,94,1,2.59,clear sky,0.0,0.0
160,Rutigliano,IT,41.01,17.01,72.0,72,0,7.0,clear sky,0.0,0.0
161,Bhasawar,IN,27.03,77.03,93.49,39,2,8.16,clear sky,0.0,0.0
162,Bengkulu,ID,-3.8,102.27,75.63,89,100,4.72,light rain,0.2,0.0
163,Koscierzyna,PL,54.12,17.98,66.99,93,40,5.82,light intensity shower rain,0.0,0.0
164,Margate,GB,51.38,1.39,62.01,72,1,1.99,clear sky,0.0,0.0
165,Krasnoselkup,RU,65.7,82.47,44.76,86,100,13.73,overcast clouds,0.0,0.0
166,Shelburne,CA,44.08,-80.2,87.8,38,40,5.82,scattered clouds,0.0,0.0
167,Klaksvik,FO,62.23,-6.59,51.8,100,47,9.17,scattered clouds,0.0,0.0
168,Ilulissat,GL,69.22,-51.1,46.4,45,5,4.7,clear sky,0.0,0.0
169,Kapoeta,SS,4.77,33.59,74.98,77,16,3.91,moderate rain,1.9,0.0
170,Nantucket,US,41.28,-70.1,77.0,77,1,12.75,clear sky,0.0,0.0
171,Dakar,SN,14.69,-17.44,80.6,78,0,4.7,clear sky,0.0,0.0
172,Upernavik,GL,72.79,-56.15,41.2,74,0,4.99,clear sky,0.0,0.0
173,Longyearbyen,SJ,78.22,15.64,39.2,86,75,17.22,broken clouds,0.0,0.0
174,Rio Grande,BR,-32.03,-52.1,64.4,93,90,3.36,light intensity drizzle,0.0,0.0
175,Sao Filipe,CV,14.9,-24.5,75.11,80,20,8.21,few clouds,0.0,0.0
176,Brewster,US,41.4,-73.62,87.01,48,20,8.05,few clouds,0.0,0.0
177,Vestmannaeyjar,IS,63.44,-20.27,51.8,87,75,26.4,broken clouds,0.0,0.0
178,Chilca,PE,-12.52,-76.74,66.2,72,90,5.82,overcast clouds,0.0,0.0
179,Stepnogorsk,KZ,52.35,71.89,53.98,49,86,15.55,overcast clouds,0.0,0.0
180,Kashi,CN,39.45,75.98,77.0,5,69,13.42,broken clouds,0.0,0.0
181,Matara,LK,5.95,80.54,80.96,84,100,12.64,overcast clouds,0.0,0.0
182,Asyut,EG,27.18,31.18,84.2,35,0,12.75,clear sky,0.0,0.0
183,Huarmey,PE,-10.07,-78.15,68.09,68,10,9.69,clear sky,0.0,0.0
184,Carballo,ES,43.21,-8.69,66.0,70,100,5.99,overcast clouds,0.0,0.0
185,Madinat Sittah Uktubar,EG,29.82,31.05,80.6,51,0,8.05,clear sky,0.0,0.0
186,Abu Dhabi,AE,24.47,54.37,89.6,70,0,3.36,clear sky,0.0,0.0
187,Ostrovnoy,RU,68.05,39.51,42.44,80,93,10.11,overcast clouds,0.0,0.0
188,Bacalar,MX,18.67,-88.38,89.6,66,75,11.41,broken clouds,0.0,0.0
189,Sumbe,AO,-11.21,13.84,71.53,85,0,5.93,clear sky,0.0,0.0
190,Dwarka,IN,22.24,68.97,86.2,76,50,17.49,light rain,0.5,0.0
191,Trincomalee,LK,8.57,81.23,83.19,75,100,20.51,overcast clouds,0.0,0.0
192,Taoudenni,ML,22.68,-3.98,104.54,8,34,5.64,scattered clouds,0.0,0.0
193,Sabzevar,IR,36.21,57.68,85.95,13,8,20.38,clear sky,0.0,0.0
194,Feijo,BR,-8.16,-70.35,82.17,78,100,1.23,light rain,0.6,0.0
195,Manaure,CO,11.78,-72.44,96.8,56,75,17.22,broken clouds,0.0,0.0
196,Monrovia,LR,6.3,-10.8,78.8,94,20,3.36,few clouds,0.0,0.0
197,Goderich,CA,43.75,-81.72,84.0,54,100,6.24,overcast clouds,0.0,0.0
198,Price,US,39.6,-110.81,80.6,14,1,5.82,clear sky,0.0,0.0
199,Monster,NL,52.03,4.17,64.99,73,9,1.68,clear sky,0.0,0.0
200,Lichtenburg,ZA,-26.15,26.16,47.41,52,0,4.29,clear sky,0.0,0.0
201,Dunmore Town,BS,25.5,-76.65,81.61,76,100,4.14,overcast clouds,0.0,0.0
202,Calceta,EC,-0.85,-80.17,82.4,74,20,10.29,few clouds,0.0,0.0
203,Bam,IR,29.11,58.36,92.48,13,56,1.54,broken clouds,0.0,0.0
204,Rawson,AR,-43.3,-65.1,58.59,43,49,28.16,scattered clouds,0.0,0.0
205,Necochea,AR,-38.55,-58.74,50.0,86,100,1.99,overcast clouds,0.0,0.0
206,Tigre,AR,-34.43,-58.58,60.8,72,40,10.29,scattered clouds,0.0,0.0
207,Voskevan,AM,41.12,45.07,71.6,60,40,28.86,scattered clouds,0.0,0.0
208,Casablanca,MA,33.59,-7.62,71.6,73,0,12.75,clear sky,0.0,0.0
209,Bilma,NE,18.69,12.92,92.59,11,82,10.42,broken clouds,0.0,0.0
210,Pangnirtung,CA,66.15,-65.71,37.4,93,20,11.41,few clouds,0.0,0.0
211,Nioro,GM,13.35,-15.75,87.71,59,46,11.97,light rain,0.2,0.0
212,Saint-Georges,GD,12.06,-61.75,86.0,79,40,16.11,scattered clouds,0.0,0.0
213,Ponta Delgada,PT,37.73,-25.67,68.0,77,20,12.75,few clouds,0.0,0.0
214,Le Vauclin,MQ,14.55,-60.84,86.0,74,75,18.34,broken clouds,0.0,0.0
215,Maniitsoq,GL,65.42,-52.9,40.75,82,100,19.01,overcast clouds,0.0,0.0
216,Inta,RU,66.03,60.17,45.3,95,100,11.05,light rain,0.7,0.0
217,Lagoa,PT,39.05,-27.98,65.66,91,0,17.98,clear sky,0.0,0.0
218,Dingle,PH,11.0,122.67,77.77,78,7,4.88,clear sky,0.0,0.0
219,Husavik,IS,66.04,-17.34,60.8,67,20,16.11,few clouds,0.0,0.0
220,Nimaparha,IN,20.07,86.02,82.4,94,75,6.93,haze,0.0,0.0
221,Lokoja,NG,7.8,6.74,80.37,76,77,2.44,broken clouds,0.0,0.0
222,Lagdo,CM,9.05,13.73,84.2,74,20,3.36,thunderstorm,0.0,0.0
223,Los Andes,CL,-32.83,-70.6,54.0,99,100,1.92,overcast clouds,0.0,0.0
224,Pauini,BR,-7.71,-66.98,89.13,53,5,3.6,clear sky,0.0,0.0
225,San Lawrenz,MT,36.06,14.2,73.0,68,0,21.92,clear sky,0.0,0.0
226,Colchester,GB,51.89,0.9,66.0,76,0,10.45,clear sky,0.0,0.0
227,Tome,CL,-36.62,-72.95,55.4,93,90,13.87,moderate rain,0.0,0.0
228,Marsh Harbour,BS,26.54,-77.06,82.0,75,78,5.06,broken clouds,0.0,0.0
229,Zyryanovsk,KZ,49.74,84.27,40.93,88,4,3.11,clear sky,0.0,0.0
230,Sakakah,SA,29.97,40.21,84.2,23,0,11.41,clear sky,0.0,0.0
231,Alpena,US,45.06,-83.43,82.4,58,90,11.41,overcast clouds,0.0,0.0
232,Mogwase,ZA,-25.18,27.27,52.2,43,0,3.98,clear sky,0.0,0.0
233,Bandar-E Lengeh,IR,26.56,54.88,88.38,73,0,4.97,clear sky,0.0,0.0
234,Sarandi,BR,-23.44,-51.87,72.37,69,0,5.19,clear sky,0.0,0.0
235,Kosh-Agach,RU,50.0,88.67,46.63,72,88,5.19,overcast clouds,0.0,0.0
236,Touros,BR,-5.2,-35.46,78.8,78,40,11.41,scattered clouds,0.0,0.0
237,Hvide Sande,DK,56.0,8.13,62.01,80,94,1.99,overcast clouds,0.0,0.0
238,Korla,CN,41.76,86.15,74.32,23,4,15.12,clear sky,0.0,0.0
239,Paita,PE,-5.09,-81.11,75.2,64,0,14.99,clear sky,0.0,0.0
240,Puerto Narino,CO,-3.77,-70.38,89.6,70,40,5.82,scattered clouds,0.0,0.0
241,Goundam,ML,16.41,-3.67,97.86,26,81,7.2,broken clouds,0.0,0.0
242,Praia,CV,14.92,-23.51,78.8,65,20,19.46,few clouds,0.0,0.0
243,Loubomo,CG,-4.2,12.67,70.5,91,19,4.79,few clouds,0.0,0.0
244,Huambo,AO,-12.78,15.74,53.89,42,0,2.89,clear sky,0.0,0.0
245,Nouadhibou,MR,20.93,-17.03,73.4,69,25,11.41,dust,0.0,0.0
246,Castro,BR,-24.79,-50.01,66.69,73,0,5.17,clear sky,0.0,0.0
247,Kamyzyak,RU,46.11,48.07,78.8,50,91,4.47,overcast clouds,0.0,0.0
248,Caconda,AO,-13.73,15.07,53.22,43,0,1.32,clear sky,0.0,0.0
249,Kargat,RU,55.2,80.28,40.86,87,0,4.88,clear sky,0.0,0.0
250,Owando,CG,-0.48,15.9,75.97,62,100,1.45,overcast clouds,0.0,0.0
251,Alta Floresta,BR,-9.88,-56.09,93.2,34,20,6.93,few clouds,0.0,0.0
252,Martigny,CH,46.08,7.08,73.4,52,81,2.24,broken clouds,0.0,0.0
253,Marovoay,MG,-16.1,46.63,73.4,78,40,6.93,scattered clouds,0.0,0.0
254,Bud,US,39.45,-86.18,89.6,38,1,4.7,clear sky,0.0,0.0
255,Santa Cruz,BO,-17.8,-63.17,86.0,58,40,18.34,scattered clouds,0.0,0.0
256,Lagos,NG,6.58,3.75,73.4,100,75,3.36,thunderstorm with light rain,0.0,0.0
257,Baghdad,IQ,33.34,44.4,89.6,27,0,6.93,clear sky,0.0,0.0
258,Gobabis,NA,-22.45,18.97,50.0,46,47,2.24,scattered clouds,0.0,0.0
259,Sukhobezvodnoye,RU,57.05,44.89,52.11,74,1,8.81,clear sky,0.0,0.0
260,Marquette,US,46.53,-87.63,59.0,90,100,1.01,overcast clouds,0.0,0.0
261,Abonnema,NG,4.71,6.79,77.0,94,75,3.36,thunderstorm with light rain,0.0,0.0
262,Sechura,PE,-5.56,-80.82,76.17,55,1,15.08,clear sky,0.0,0.0
263,Marawi,PH,8.0,124.29,77.0,92,99,5.99,overcast clouds,0.0,0.0
264,Beloha,MG,-25.17,45.05,64.63,75,14,5.86,few clouds,0.0,0.0
265,Uyuni,BO,-20.46,-66.83,55.92,29,0,7.43,clear sky,0.0,0.0
266,Izazi,TZ,-7.2,35.73,64.4,59,92,11.41,overcast clouds,0.0,0.0
267,Baixa Grande,BR,-11.96,-40.17,74.05,69,37,9.91,scattered clouds,0.0,0.0
268,Constitucion,CL,-35.33,-72.42,55.24,89,100,22.1,moderate rain,1.6,0.0
269,Gat,IL,31.61,34.76,73.99,93,1,8.99,clear sky,0.0,0.0
270,Aquiraz,BR,-3.9,-38.39,86.0,62,40,16.11,scattered clouds,0.0,0.0
271,Nanortalik,GL,60.14,-45.24,41.22,73,100,8.99,overcast clouds,0.0,0.0
272,Laguna,US,38.42,-121.42,84.0,42,1,8.05,clear sky,0.0,0.0
273,La Rosa,HN,15.35,-87.07,89.6,70,20,12.75,few clouds,0.0,0.0
274,Traverse City,US,44.76,-85.62,78.8,61,90,10.29,overcast clouds,0.0,0.0
275,Copiapo,CL,-27.37,-70.33,64.4,63,0,9.17,clear sky,0.0,0.0
276,Spring Hill,US,28.48,-82.53,91.4,46,1,11.41,clear sky,0.0,0.0
277,Annau,TM,37.89,58.52,91.4,11,75,20.8,broken clouds,0.0,0.0
278,Endicott,US,42.1,-76.05,82.0,54,20,4.7,few clouds,0.0,0.0
279,Sambava,MG,-14.27,50.17,74.68,90,99,14.72,moderate rain,1.2,0.0
280,Cordele,US,31.96,-83.78,87.8,45,90,4.7,haze,0.0,0.0
281,Kalabo,ZM,-14.97,22.68,56.66,39,0,5.23,clear sky,0.0,0.0
282,Mogadishu,SO,2.04,45.34,78.44,80,0,21.65,clear sky,0.0,0.0
283,Ijsselstein,NL,52.02,5.03,64.99,71,0,3.89,clear sky,0.0,0.0
284,Hit,IQ,33.64,42.83,84.09,28,0,10.29,clear sky,0.0,0.0
285,Wamba,NG,8.93,8.6,75.58,82,41,1.3,light rain,0.4,0.0
286,Castelldefels,ES,41.28,1.97,73.0,88,20,9.17,few clouds,0.0,0.0
287,Malanville,BJ,11.87,3.39,89.2,44,3,8.79,clear sky,0.0,0.0
288,Puerto Del Rosario,ES,28.5,-13.86,73.4,73,20,18.34,few clouds,0.0,0.0
289,Kang,BW,-23.68,22.79,51.96,48,0,5.1,clear sky,0.0,0.0
290,Batticaloa,LK,7.71,81.69,82.45,75,100,7.0,overcast clouds,0.0,0.0
291,Conde,BR,-7.26,-34.91,78.8,83,75,12.75,broken clouds,0.0,0.0
292,Carnarvon,AU,-24.87,113.63,59.0,100,0,4.7,clear sky,0.0,0.0
293,Sisimiut,GL,66.94,-53.67,46.69,59,57,14.2,broken clouds,0.0,0.0
294,Mana,GF,5.66,-53.78,80.71,84,99,9.64,light rain,0.3,0.0
295,Mastic Beach,US,40.77,-72.85,82.0,57,1,12.75,clear sky,0.0,0.0
296,Bangassou,CF,4.74,22.82,71.17,89,100,1.79,overcast clouds,0.0,0.0
297,Ludvika,SE,60.15,15.19,66.0,73,2,5.01,clear sky,0.0,0.0
298,Campo Maior,BR,-4.83,-42.17,84.78,65,87,2.73,overcast clouds,0.0,0.0
299,Santa Isabel Do Rio Negro,BR,-0.41,-65.02,81.48,83,91,2.75,light rain,0.5,0.0
300,Kez,RU,57.9,53.72,44.26,78,0,5.86,clear sky,0.0,0.0
301,Brae,GB,60.4,-1.35,57.2,87,50,16.11,scattered clouds,0.0,0.0
302,Jizan,SA,17.33,42.67,95.0,50,40,6.93,scattered clouds,0.0,0.0
303,Buraydah,SA,26.33,43.98,93.2,23,0,11.41,clear sky,0.0,0.0
304,Quatre Cocos,MU,-20.21,57.76,72.0,73,40,16.11,scattered clouds,0.0,0.0
305,Tanout,NE,14.97,8.89,96.89,12,56,4.05,broken clouds,0.0,0.0
306,Syracuse,IT,37.09,15.28,78.8,56,0,10.29,clear sky,0.0,0.0
307,Rio Gallegos,AR,-51.62,-69.22,39.2,80,40,14.99,scattered clouds,0.0,0.0
308,Villanueva,HN,15.32,-88.0,95.0,50,40,13.87,scattered clouds,0.0,0.0
309,Boddam,GB,57.47,-1.78,61.0,77,0,12.75,clear sky,0.0,0.0
310,Inirida,CO,3.87,-67.92,79.27,94,100,1.12,moderate rain,2.0,0.0
311,Jacareacanga,BR,-6.22,-57.75,91.47,44,2,3.69,clear sky,0.0,0.0
312,Westport,US,41.14,-73.36,84.99,54,1,11.41,clear sky,0.0,0.0
313,Prado,BR,-17.34,-39.22,73.87,77,4,4.7,clear sky,0.0,0.0
314,Yar-Sale,RU,66.83,70.83,46.49,65,72,15.99,broken clouds,0.0,0.0
315,Tias,ES,28.96,-13.64,73.4,64,20,19.46,few clouds,0.0,0.0
316,Labytnangi,RU,66.66,66.42,46.56,66,95,17.36,overcast clouds,0.0,0.0
317,Cervo,ES,43.67,-7.41,66.99,75,100,5.01,overcast clouds,0.0,0.0
318,Arlit,NE,18.74,7.39,99.93,7,0,13.85,clear sky,0.0,0.0
319,Kazerun,IR,29.62,51.65,79.99,15,0,2.62,clear sky,0.0,0.0
320,Ambilobe,MG,-13.2,49.05,71.64,90,43,4.18,scattered clouds,0.0,0.0
321,Saint-Francois,FR,46.42,3.91,64.99,63,100,1.12,overcast clouds,0.0,0.0
322,Benjamin Constant,BR,-4.38,-70.03,89.6,74,75,3.36,thunderstorm,0.0,0.0
323,Toamasina,MG,-18.17,49.38,66.2,93,75,11.41,light rain,0.0,0.0
324,Porto Velho,BR,-8.76,-63.9,89.6,52,40,5.82,scattered clouds,0.0,0.0
325,Hun,LY,29.13,15.95,84.13,33,0,19.37,clear sky,0.0,0.0
326,Kovylkino,RU,54.04,43.91,63.59,92,87,4.88,moderate rain,1.3,0.0
327,Sistranda,NO,63.73,8.83,77.0,50,76,5.82,broken clouds,0.0,0.0
328,Naryan-Mar,RU,67.67,53.09,41.56,90,100,23.98,light rain,0.5,0.0
329,Gamba,GA,-2.65,10.0,73.4,94,59,5.91,broken clouds,0.0,0.0
330,Carahue,CL,-38.7,-73.17,51.8,87,90,12.75,light intensity shower rain,0.0,0.0
331,Banda Aceh,ID,5.56,95.32,80.17,76,74,6.6,light rain,0.1,0.0
332,Amos,CA,48.57,-78.12,89.6,29,75,10.29,broken clouds,0.0,0.0
333,Tuapse,RU,44.11,39.07,69.31,83,27,10.58,scattered clouds,0.0,0.0
334,Leh,IN,34.17,77.58,51.19,45,23,4.36,few clouds,0.0,0.0
335,Saint-Augustin,CA,51.23,-58.65,57.9,55,62,9.15,broken clouds,0.0,0.0
336,Bathsheba,BB,13.22,-59.52,86.0,74,20,19.46,few clouds,0.0,0.0
337,Caravelas,BR,-17.71,-39.25,73.74,77,44,3.67,scattered clouds,0.0,0.0
338,Marystown,CA,47.17,-55.15,52.77,77,100,12.62,overcast clouds,0.0,0.0
339,Nampula,MZ,-15.12,39.27,68.0,77,16,10.29,few clouds,0.0,0.0
340,Dubti,ET,11.74,41.09,95.2,25,39,8.19,scattered clouds,0.0,0.0
341,Camargo,MX,27.67,-105.17,92.86,18,26,2.82,scattered clouds,0.0,0.0
342,Uyemskiy,RU,64.47,40.85,48.2,66,40,4.47,scattered clouds,0.0,0.0
343,Leo,BF,11.1,-2.1,84.83,46,48,5.99,scattered clouds,0.0,0.0
344,Priyutovo,RU,53.9,53.93,57.9,92,4,6.31,light rain,0.4,0.0
345,Havre-Saint-Pierre,CA,50.23,-63.6,60.8,63,1,9.17,clear sky,0.0,0.0
346,Aqtobe,KZ,50.28,57.21,55.4,37,0,4.47,clear sky,0.0,0.0
347,Henties Bay,NA,-22.12,14.28,68.0,36,75,7.7,broken clouds,0.0,0.0
348,Vredendal,ZA,-31.67,18.5,56.84,91,2,4.68,clear sky,0.0,0.0
349,Sulina,RO,45.16,29.65,69.8,81,97,7.81,light rain,0.1,0.0
350,Seligenstadt,DE,50.04,8.97,66.99,86,34,3.49,scattered clouds,0.0,0.0
351,Takoradi,GH,4.88,-1.76,76.87,86,76,9.78,broken clouds,0.0,0.0
352,South Venice,US,27.05,-82.42,96.01,70,1,9.17,clear sky,0.0,0.0
353,Olbia,IT,40.92,9.49,71.6,46,0,20.8,clear sky,0.0,0.0
354,Rapar,IN,23.57,70.63,86.76,67,61,19.08,broken clouds,0.0,0.0
355,Kalmunai,LK,7.42,81.82,83.08,75,100,3.33,overcast clouds,0.0,0.0
356,La Asuncion,VE,11.03,-63.86,91.4,59,19,16.11,few clouds,0.0,0.0
357,Adrar,MR,20.5,-10.07,102.45,13,26,10.31,scattered clouds,0.0,0.0
358,Aksu,CN,41.12,80.26,69.67,33,60,4.45,broken clouds,0.0,0.0
359,Muli,MV,2.92,73.57,83.89,78,100,11.61,overcast clouds,0.0,0.0
360,Sept-Iles,CA,50.2,-66.38,60.01,67,75,5.82,broken clouds,0.0,0.0
361,Raduzhnyy,RU,62.1,77.47,49.35,82,100,12.46,overcast clouds,0.0,0.0
362,Oistins,BB,13.07,-59.53,86.0,74,20,19.46,few clouds,0.0,0.0
363,Porto Santo,PT,33.07,-16.34,69.8,77,75,12.75,broken clouds,0.0,0.0
364,Codrington,AU,-38.27,141.97,43.95,91,86,4.97,overcast clouds,0.0,0.0
365,Trairi,BR,-3.28,-39.27,80.29,77,5,10.18,light rain,0.2,0.0
366,Verkhnetulomskiy,RU,68.61,31.8,50.0,66,26,4.47,scattered clouds,0.0,0.0
367,Saint-Jean-De-Braye,FR,47.91,1.98,66.99,63,44,4.7,scattered clouds,0.0,0.0
368,Mabaruma,GY,8.2,-59.78,86.25,61,23,7.7,few clouds,0.0,0.0
369,Razole,IN,16.48,81.83,83.08,75,99,7.9,overcast clouds,0.0,0.0
370,Mbandaka,CD,0.05,18.26,74.52,57,54,2.37,broken clouds,0.0,0.0
371,Ocho Rios,JM,18.4,-77.1,87.01,80,38,13.0,light rain,0.6,0.0
372,Wabana,CA,47.63,-52.95,46.99,81,75,13.87,broken clouds,0.0,0.0
373,Sal Rei,CV,16.18,-22.92,77.0,73,75,14.99,broken clouds,0.0,0.0
374,Lahij,YE,13.17,44.58,91.99,47,93,4.09,overcast clouds,0.0,0.0
375,Dobryanka,RU,58.46,56.42,48.2,76,2,4.47,clear sky,0.0,0.0
376,Krosno Odrzanskie,PL,52.05,15.1,57.99,39,100,9.33,overcast clouds,0.0,0.0
377,Stupino,RU,54.9,38.07,66.2,88,99,11.18,overcast clouds,0.0,0.0
378,Sarkand,KZ,45.41,79.92,48.04,56,0,4.88,clear sky,0.0,0.0
379,Kudahuvadhoo,MV,2.67,72.89,83.95,77,100,10.67,overcast clouds,0.0,0.0
380,Jyvaskyla,FI,62.24,25.72,64.4,59,2,5.82,clear sky,0.0,0.0
381,Serabu,SL,7.8,-12.05,75.0,95,36,2.55,scattered clouds,0.0,0.0
382,Pavilosta,LV,56.89,21.19,69.8,88,80,6.93,broken clouds,0.0,0.0
383,Boundiali,CI,9.52,-6.49,78.53,69,12,6.38,few clouds,0.0,0.0
384,Piacabucu,BR,-10.41,-36.43,76.39,81,3,13.78,light rain,0.2,0.0
385,Manacapuru,BR,-3.3,-60.62,87.8,58,40,12.75,scattered clouds,0.0,0.0
386,Havoysund,NO,71.0,24.66,44.6,87,0,8.05,clear sky,0.0,0.0
387,Beirut,LB,33.89,35.49,77.0,73,20,12.75,few clouds,0.0,0.0
388,Inhambane,MZ,-23.86,35.38,65.01,81,0,6.62,clear sky,0.0,0.0
389,Sao Joao Da Barra,BR,-21.64,-41.05,80.6,61,0,13.87,clear sky,0.0,0.0
390,Pascagoula,US,30.37,-88.56,93.2,52,75,8.05,broken clouds,0.0,0.0
391,Vardo,NO,70.37,31.11,43.2,84,2,4.9,clear sky,0.0,0.0
392,Abaza,RU,52.66,90.09,49.93,91,100,2.3,overcast clouds,0.0,0.0
393,Sorland,NO,67.67,12.69,57.63,66,0,10.18,clear sky,0.0,0.0
394,Rozivka,UA,46.94,35.77,68.11,77,46,3.71,scattered clouds,0.0,0.0
395,Leningradskiy,RU,69.38,178.42,51.48,54,36,4.61,scattered clouds,0.0,0.0
396,Derzhavinsk,KZ,51.1,66.32,60.28,36,0,15.48,clear sky,0.0,0.0
397,Nurota,UZ,40.56,65.69,73.4,27,0,9.17,clear sky,0.0,0.0
398,Goure,NE,13.98,10.27,96.01,16,3,1.99,clear sky,0.0,0.0
399,Atbasar,KZ,51.8,68.33,56.26,45,11,13.24,few clouds,0.0,0.0
400,Salinopolis,BR,-0.61,-47.36,81.48,83,6,11.25,light rain,0.2,0.0
401,Cururupu,BR,-1.83,-44.87,82.49,72,4,5.88,clear sky,0.0,0.0
402,Shahrud,IR,36.42,54.98,86.45,13,99,14.61,overcast clouds,0.0,0.0
403,Olyka,UA,50.72,25.81,64.99,96,99,6.85,overcast clouds,0.0,0.0
404,Tera,NE,14.01,0.75,99.7,23,100,5.28,overcast clouds,0.0,0.0
405,Guantanamo,CU,20.14,-75.21,89.6,75,20,13.87,few clouds,0.0,0.0
406,Qaqortoq,GL,60.72,-46.03,55.4,35,75,5.82,broken clouds,0.0,0.0
407,Viedma,AR,-40.81,-63.0,51.4,74,96,18.66,overcast clouds,0.0,0.0
408,Batsfjord,NO,70.63,29.72,45.95,75,6,1.97,clear sky,0.0,0.0
409,Raudeberg,NO,61.99,5.14,66.2,72,100,0.67,overcast clouds,0.0,0.0
410,Shetpe,KZ,44.17,52.12,83.89,19,69,22.59,broken clouds,0.0,0.0
411,Santa Cruz Cabralia,BR,-16.28,-39.02,78.8,61,22,6.93,few clouds,0.0,0.0
412,Olafsvik,IS,64.89,-23.71,51.62,85,95,4.34,overcast clouds,0.0,0.0
413,Khed Brahma,IN,24.03,73.05,85.95,67,52,9.82,moderate rain,2.1,0.0
414,Eyemouth,GB,55.87,-2.09,64.0,7,2,8.81,clear sky,0.0,0.0
415,Rosetta,EG,31.4,30.42,75.2,73,0,8.05,clear sky,0.0,0.0
416,Pemba,MZ,-12.97,40.52,77.05,71,99,18.41,overcast clouds,0.0,0.0
417,Pitimbu,BR,-7.47,-34.81,78.8,83,75,12.75,broken clouds,0.0,0.0
418,Harper,LR,4.38,-7.72,78.24,80,100,7.02,overcast clouds,0.0,0.0
419,Pindi Gheb,PK,33.24,72.27,80.6,57,0,2.24,clear sky,0.0,0.0
420,Bria,CF,6.54,21.99,71.15,93,100,1.45,light rain,0.5,0.0
421,Rafai,CF,4.95,23.92,69.66,95,100,1.01,light rain,0.2,0.0
422,Mlowo,TZ,-9.0,32.98,53.69,86,7,5.59,clear sky,0.0,0.0
423,Jalu,LY,29.03,21.55,93.06,12,0,5.06,clear sky,0.0,0.0
424,La Tuque,CA,47.43,-72.78,85.87,43,55,6.35,broken clouds,0.0,0.0
425,Nsunga,TZ,-1.14,31.39,69.8,83,77,0.56,broken clouds,0.0,0.0
426,Sovetskaya,RU,44.78,41.17,71.01,6,96,5.99,light rain,0.5,0.0
427,Tucupita,VE,9.06,-62.05,87.75,66,33,5.53,light rain,0.4,0.0
428,Paamiut,GL,61.99,-49.67,40.28,83,70,27.13,broken clouds,0.0,0.0
429,Vila Do Maio,CV,15.13,-23.22,78.8,65,20,19.46,few clouds,0.0,0.0
430,Talcahuano,CL,-36.72,-73.12,55.4,93,90,13.87,moderate rain,0.0,0.0
431,Soyo,AO,-6.13,12.37,74.17,89,0,7.87,clear sky,0.0,0.0
432,Honningsvag,NO,70.98,25.97,44.08,82,0,5.08,clear sky,0.0,0.0
433,Aksarka,RU,66.56,67.8,46.11,62,90,16.62,overcast clouds,0.0,0.0
434,Polunochnoye,RU,60.87,60.42,42.85,77,88,8.1,overcast clouds,0.0,0.0
435,Corum,TR,40.5,34.75,55.69,89,87,0.78,overcast clouds,0.0,0.0
436,Joshimath,IN,30.57,79.57,63.99,53,98,1.79,light rain,0.2,0.0
437,Doka,SD,13.52,35.77,84.22,57,87,9.33,overcast clouds,0.0,0.0
438,Langley Park,US,38.99,-76.98,71.6,83,75,10.96,broken clouds,0.0,0.0
439,Mustasaari,FI,63.11,21.68,60.8,72,29,10.29,scattered clouds,0.0,0.0
440,Riyadh,SA,24.69,46.72,95.0,13,100,6.93,overcast clouds,0.0,0.0
441,Urucara,BR,-2.54,-57.76,86.58,65,100,3.62,light rain,0.1,0.0
442,Portree,GB,57.41,-6.19,62.01,54,45,15.99,scattered clouds,0.0,0.0
443,Sovetskiy,RU,61.36,63.58,42.28,78,15,8.37,few clouds,0.0,0.0
444,Tarancon,ES,40.01,-3.01,82.99,24,20,5.82,few clouds,0.0,0.0
445,Eyl,SO,7.98,49.82,81.12,69,82,22.86,broken clouds,0.0,0.0
446,Agirish,RU,61.92,63.02,39.87,87,64,9.24,broken clouds,0.0,0.0
447,Berbera,SO,10.44,45.01,94.48,36,63,9.19,broken clouds,0.0,0.0
448,Sawakin,SD,19.11,37.33,83.59,53,100,7.11,overcast clouds,0.0,0.0
449,Neokhorion,GR,41.18,23.25,73.99,72,68,1.01,broken clouds,0.0,0.0
450,Urumqi,CN,43.8,87.6,57.2,87,75,4.47,light intensity shower rain,0.0,0.0
451,Bezhanitsy,RU,56.98,29.89,61.95,90,100,7.07,overcast clouds,0.0,0.0
452,Sao Jose Da Coroa Grande,BR,-8.9,-35.15,77.41,78,0,14.07,clear sky,0.0,0.0
453,Galle,LK,6.04,80.22,81.95,83,100,14.74,overcast clouds,0.0,0.0
454,Omboue,GA,-1.57,9.26,74.19,91,98,8.23,overcast clouds,0.0,0.0
455,Tral,IN,33.93,75.1,61.02,56,3,1.74,clear sky,0.0,0.0
456,Khorramshahr,IR,30.44,48.17,95.0,20,0,4.7,clear sky,0.0,0.0
457,Viljoenskroon,ZA,-27.21,26.95,48.13,52,0,0.83,clear sky,0.0,0.0
458,Fleetwood,GB,53.93,-3.01,64.99,68,20,3.36,few clouds,0.0,0.0
459,Aljezur,PT,37.32,-8.8,77.0,53,0,15.14,clear sky,0.0,0.0
460,Irtyshskiy,RU,58.33,68.13,50.36,92,87,7.14,overcast clouds,0.0,0.0
461,Oranjestad,AW,12.52,-70.03,87.8,70,40,19.46,scattered clouds,0.0,0.0
462,Trelleborg,SE,55.38,13.16,64.99,88,75,9.17,broken clouds,0.0,0.0
463,Herat,AF,34.5,62.0,71.58,20,0,8.66,clear sky,0.0,0.0
464,Graaff-Reinet,ZA,-32.25,24.53,57.79,35,0,11.72,clear sky,0.0,0.0
465,Paragominas,BR,-2.97,-47.48,85.03,68,9,3.15,clear sky,0.0,0.0
466,Chicama,PE,-7.84,-79.15,73.36,57,2,10.13,clear sky,0.0,0.0
467,Arnedo,ES,42.22,-2.1,78.8,50,0,5.82,clear sky,0.0,0.0
468,Meleuz,RU,52.97,55.92,59.83,77,0,2.68,clear sky,0.0,0.0
469,Oktyabrskoye,RU,43.06,44.74,66.2,82,100,4.47,light rain,0.5,0.0
470,Chama,CH,47.18,8.46,63.0,77,90,11.41,light rain,0.0,0.0
471,Cremona,IT,45.23,9.93,71.01,70,0,4.03,clear sky,0.0,0.0
472,Zaysan,KZ,47.47,84.87,47.17,74,56,10.56,broken clouds,0.0,0.0
473,Grand Gaube,MU,-20.01,57.66,72.0,77,96,8.99,overcast clouds,0.0,0.0
474,Bousso,TD,10.48,16.71,85.05,58,100,5.7,light rain,0.2,0.0
475,Villaviciosa,ES,43.48,-5.44,64.99,78,34,1.72,scattered clouds,0.0,0.0
476,Cacoal,BR,-11.44,-61.45,86.99,60,76,0.92,broken clouds,0.0,0.0
477,Wajir,KE,1.75,40.06,79.5,56,51,21.74,broken clouds,0.0,0.0
478,Humenne,SK,48.94,21.92,60.01,92,73,1.25,broken clouds,0.0,0.0
479,Loding,NO,67.3,14.75,71.6,49,0,8.05,clear sky,0.0,0.0
480,Talara,PE,-4.58,-81.27,75.2,64,2,14.99,clear sky,0.0,0.0
481,Ravar,IR,31.27,56.81,89.31,12,75,4.92,broken clouds,0.0,0.0
482,Severodvinsk,RU,64.56,39.83,48.2,66,40,4.47,scattered clouds,0.0,0.0
483,Kuusamo,FI,65.97,29.18,60.8,44,14,2.24,few clouds,0.0,0.0
484,Zonguldak,TR,41.25,31.83,58.89,81,0,5.66,clear sky,0.0,0.0
485,Pompeu,BR,-19.22,-44.94,73.15,59,1,3.76,clear sky,0.0,0.0
486,Antofagasta,CL,-23.65,-70.4,62.6,63,20,12.75,few clouds,0.0,0.0
487,Havelock,US,34.88,-76.9,86.0,51,75,6.93,broken clouds,0.0,0.0
488,Zvenigovo,RU,55.97,48.02,60.8,55,20,8.95,few clouds,0.0,0.0
489,Santa Rosa,PH,14.31,121.11,80.6,88,20,0.96,few clouds,0.0,0.0
490,Ugoofaaru,MV,5.67,73.0,83.88,77,100,13.69,overcast clouds,0.0,0.0
491,Novo Aripuana,BR,-5.12,-60.38,90.61,47,100,3.53,overcast clouds,0.0,0.0
492,Faya,SA,18.39,42.45,77.0,47,100,3.67,overcast clouds,0.0,0.0
493,Rumonge,BI,-3.97,29.44,72.97,65,35,2.84,scattered clouds,0.0,0.0
494,Codroipo,IT,45.96,12.98,70.0,71,24,0.6,few clouds,0.0,0.0
495,Navrongo,GH,10.9,-1.09,87.75,43,63,5.55,broken clouds,0.0,0.0
496,Kutahya,TR,39.42,29.98,66.2,77,20,3.36,few clouds,0.0,0.0
497,Dejen,ET,10.17,38.13,61.34,77,100,4.94,light rain,0.1,0.0
498,Swinford,IE,53.95,-8.95,55.99,94,100,13.0,moderate rain,2.1,0.0
499,Ayorou,NE,14.73,0.92,99.79,23,100,0.65,overcast clouds,0.0,0.0
500,Moissac,FR,44.1,1.09,70.0,64,23,4.7,few clouds,0.0,0.0
501,Strezhevoy,RU,60.73,77.59,50.0,87,75,15.66,light intensity shower rain,0.0,0.0
502,Mayumba,GA,-3.43,10.66,74.3,88,56,6.06,broken clouds,0.0,0.0
503,Rock Hill,US,34.92,-81.03,88.0,65,90,3.33,light rain,0.2,0.0
504,Dzheguta,RU,43.97,42.04,57.27,76,89,6.22,overcast clouds,0.0,0.0
505,Geraldton,AU,-28.77,114.6,48.2,93,0,4.7,clear sky,0.0,0.0
506,Sur,OM,22.57,59.53,86.27,65,42,15.97,scattered clouds,0.0,0.0
507,Izhmorskiy,RU,56.19,86.64,40.73,81,100,2.84,overcast clouds,0.0,0.0
508,Chimore,BO,-16.98,-65.13,79.3,85,81,2.39,light rain,0.6,0.0
509,Astana,KZ,51.18,71.45,46.4,81,24,6.71,few clouds,0.0,0.0
510,Grootfontein,NA,-19.57,18.12,50.27,48,3,5.48,clear sky,0.0,0.0
511,Agadir,MA,30.42,-9.6,69.8,77,20,12.75,few clouds,0.0,0.0
512,Bama,NG,11.52,13.69,89.74,42,0,9.24,clear sky,0.0,0.0
513,Mezen,RU,65.85,44.24,42.1,80,100,12.03,overcast clouds,0.0,0.0
514,Lilongwe,MW,-13.97,33.79,58.5,67,34,4.85,scattered clouds,0.0,0.0
515,Santa Maria Da Vitoria,BR,-13.39,-44.19,82.31,44,8,5.44,clear sky,0.0,0.0
516,Belyy Yar,RU,53.6,91.39,51.8,87,40,6.71,scattered clouds,0.0,0.0
517,Doha,QA,25.29,51.53,87.8,55,0,2.24,clear sky,0.0,0.0
518,Samarina,RU,57.89,27.81,64.4,72,0,6.71,clear sky,0.0,0.0
519,Mucurapo,TT,10.67,-61.53,89.6,62,40,14.99,scattered clouds,0.0,0.0
520,Camopi,GF,3.17,-52.32,79.38,94,100,3.27,light rain,1.0,0.0
521,Jutai,BR,-5.18,-68.9,83.86,81,37,2.89,light rain,1.0,0.0
522,Surgut,RU,61.25,73.42,50.0,100,75,13.42,light intensity shower rain,0.0,0.0
523,Hofn,IS,64.25,-15.21,51.49,91,62,6.17,broken clouds,0.0,0.0
524,Las Palmas,ES,28.42,-14.01,73.4,73,20,18.34,few clouds,0.0,0.0
525,Neumunster,DE,54.07,9.98,66.0,71,100,5.99,overcast clouds,0.0,0.0
526,Plettenberg Bay,ZA,-34.05,23.37,59.52,84,95,4.65,overcast clouds,0.0,0.0
527,Cochrane,CA,51.18,-114.47,75.2,33,90,8.95,overcast clouds,0.0,0.0
528,Alberton,CA,46.82,-64.07,58.01,85,53,11.36,broken clouds,0.0,0.0
529,Khandbari,NP,27.37,87.2,72.37,70,30,1.45,light rain,0.1,0.0
530,Douentza,ML,15.0,-2.95,92.98,32,75,10.13,broken clouds,0.0,0.0
531,Cacu,BR,-18.56,-51.13,79.66,51,9,5.7,clear sky,0.0,0.0
532,Bosaso,SO,11.28,49.18,93.88,44,8,11.65,clear sky,0.0,0.0
533,Wieliczka,PL,49.99,20.06,64.4,93,75,6.93,broken clouds,0.0,0.0
534,Warrington,GB,53.39,-2.58,66.99,72,100,11.41,overcast clouds,0.0,0.0
535,Sao Francisco,BR,-15.95,-44.86,79.75,47,10,3.67,clear sky,0.0,0.0
536,Maridi,SS,4.92,29.47,67.86,96,98,4.07,overcast clouds,0.0,0.0
537,Bhadrachalam,IN,17.67,80.88,82.42,74,100,3.04,light rain,0.2,0.0
538,Malkapur,IN,20.88,76.2,82.56,68,100,10.09,light rain,0.2,0.0
539,Araouane,ML,18.9,-3.53,101.14,15,42,1.97,scattered clouds,0.0,0.0
540,Tizimin,MX,21.15,-88.15,87.01,73,13,7.25,moderate rain,1.2,0.0
541,Gurupa,BR,-1.41,-51.64,85.89,66,7,3.31,clear sky,0.0,0.0
542,Bardiyah,LY,31.76,25.09,83.26,30,0,13.24,clear sky,0.0,0.0
543,Chisinau,MD,47.01,28.86,69.8,83,86,5.82,overcast clouds,0.0,0.0
544,Cascais,PT,38.7,-9.42,68.0,77,20,19.46,few clouds,0.0,0.0
545,Ngaoundere,CM,7.32,13.58,65.88,94,100,1.77,overcast clouds,0.0,0.0
546,Joao Pinheiro,BR,-17.74,-46.17,74.08,67,2,4.59,clear sky,0.0,0.0
547,Bhuban,IN,20.88,85.83,80.73,83,98,4.72,light rain,0.4,0.0
548,Richards Bay,ZA,-28.78,32.04,63.57,82,0,9.66,clear sky,0.0,0.0
549,Bereda,ES,43.27,-7.54,64.0,66,100,5.99,overcast clouds,0.0,0.0
550,Vila Velha,BR,-20.33,-40.29,80.6,69,0,12.75,clear sky,0.0,0.0
551,Grand-Santi,GF,4.25,-54.38,79.65,94,100,3.11,moderate rain,1.3,0.0
552,Iguape,BR,-24.71,-47.56,78.6,59,0,4.68,clear sky,0.0,0.0
553,Akot,IN,21.1,77.06,82.02,69,100,4.38,overcast clouds,0.0,0.0
554,Itarema,BR,-2.92,-39.92,80.96,78,7,13.58,clear sky,0.0,0.0
555,Teguise,ES,29.06,-13.56,73.4,64,20,19.46,few clouds,0.0,0.0
556,Kannangad,IN,12.31,75.11,79.48,83,26,1.83,light rain,0.2,0.0
557,Jashpurnagar,IN,22.9,84.15,76.75,85,100,4.27,moderate rain,2.2,0.0
558,Marsa Matruh,EG,31.35,27.25,77.0,44,0,5.82,clear sky,0.0,0.0
559,Port-Gentil,GA,-0.72,8.78,77.0,88,75,11.41,broken clouds,0.0,0.0
560,Kilis,TR,36.72,37.12,71.6,53,3,1.12,clear sky,0.0,0.0
561,Nizwa,OM,22.93,57.53,88.5,37,100,0.67,overcast clouds,0.0,0.0
562,Les Cayes,HT,18.2,-73.75,84.96,73,52,10.11,broken clouds,0.0,0.0
563,Dhidhdhoo,MV,6.88,73.1,83.89,78,100,16.51,light rain,0.3,0.0
564,Ginir,ET,7.13,40.7,59.36,96,38,6.53,scattered clouds,0.0,0.0
565,Lumeje,AO,-11.55,20.78,57.7,38,0,3.13,clear sky,0.0,0.0
566,Salinas,US,36.68,-121.66,72.0,63,1,12.75,clear sky,0.0,0.0
567,Lakhdenpokhya,RU,61.52,30.2,57.0,66,0,7.92,clear sky,0.0,0.0
568,Kiruna,SE,67.86,20.23,68.0,42,13,8.05,few clouds,0.0,0.0
569,Xai-Xai,MZ,-25.05,33.64,62.62,89,0,1.74,clear sky,0.0,0.0
570,Peniche,PT,39.36,-9.38,68.0,80,0,8.01,clear sky,0.0,0.0
571,Antalaha,MG,-14.9,50.28,73.56,92,99,12.59,moderate rain,1.4,0.0
572,Ust-Koksa,RU,50.27,85.61,41.76,82,100,4.65,overcast clouds,0.0,0.0
573,Derbent,RU,42.07,48.29,73.96,45,39,9.35,scattered clouds,0.0,0.0
574,Alampur,IN,15.88,78.15,85.69,60,100,12.68,light rain,0.5,0.0
575,Rancharia,BR,-22.23,-50.89,75.22,56,0,2.62,clear sky,0.0,0.0
576,Puerto Ayora,EC,-0.74,-90.35,75.2,78,20,17.22,few clouds,0.0,0.0
577,Jawhar,SO,2.78,45.5,76.37,78,0,17.29,clear sky,0.0,0.0
578,Mahuva,IN,21.09,71.76,84.36,77,100,14.61,overcast clouds,0.0,0.0
579,Aras,ES,42.56,-2.36,75.2,50,4,5.82,clear sky,0.0,0.0
580,Corpus Christi,US,27.8,-97.4,90.0,62,75,14.99,broken clouds,0.0,0.0
581,Severnyy,RU,50.68,36.55,73.4,60,75,6.71,broken clouds,0.0,0.0
582,Canto Do Buriti,BR,-8.11,-42.94,84.58,43,0,6.42,clear sky,0.0,0.0
583,Santa Vitoria,BR,-18.84,-50.12,80.64,43,65,4.92,broken clouds,0.0,0.0
584,Meulaboh,ID,4.14,96.13,77.13,85,100,7.29,light rain,0.4,0.0
585,Salekhard,RU,66.53,66.6,46.29,66,98,16.44,overcast clouds,0.0,0.0
